id,name,lon,lat,x,y,elevation,status,note
CP-001,北侧控制点,121.23042,31.02586,21.1,73.1,8.32,done,控制点保护完好
CP-002,东侧控制点,121.23132,31.02562,106.7,46.4,8.18,checking,需复核棱镜高
ST-101,承台放样点 A,121.23078,31.02534,55.4,15.3,7.92,pending,待班组确认
ST-102,承台放样点 B,121.23102,31.02516,78.2,-4.7,7.88,pending,靠近临边
SAFE-01,基坑边坡监测点,121.23028,31.02518,7.6,-2.3,8.04,risk,雨后重点复测
ST-201,道路中线点,121.23092,31.02574,68.7,59.7,8.11,done,已移交施工员

